{"version": 0.6, "generator": "Overpass API 0.7.61.5 4133829e", "osm3s": {"timestamp_osm_base": "2023-10-22T06:34:46Z", "copyright": "The data included in this document is from www.openstreetmap.org. The data is made available under ODbL."}, "elements": [{"type": "node", "id": 2477560535, "lat": 40.7268225, "lon": -74.0031547}, {"type": "node", "id": 2477560540, "lat": 40.7265342, "lon": -74.0034641}, {"type": "node", "id": 2477560571, "lat": 40.7268663, "lon": -74.0033164}, {"type": "node", "id": 2547466432, "lat": 40.720326, "lon": -73.9994183}, {"type": "node", "id": 2547466453, "lat": 40.7204742, "lon": -73.9988613}, {"type": "node", "id": 2547466479, "lat": 40.7205876, "lon": -73.9990943}, {"type": "node", "id": 2547466482, "lat": 40.7205891, "lon": -73.9991953}, {"type": "node", "id": 2562450616, "lat": 40.7278816, "lon": -74.0026257}, {"type": "node", "id": 2562450620, "lat": 40.7279032, "lon": -74.0028464}, {"type": "node", "id": 2562450625, "lat": 40.7280177, "lon": -74.0024992}, {"type": "node", "id": 2562450626, "lat": 40.7281305, "lon": -74.0027518}, {"type": "node", "id": 4461051681, "lat": 40.7234132, "lon": -74.0032224}, {"type": "node", "id": 4461051682, "lat": 40.7234279, "lon": -74.0032139}, {"type": "node", "id": 4461051683, "lat": 40.7236346, "lon": -74.0036078}, {"type": "node", "id": 4461051684, "lat": 40.7234996, "lon": -74.0037218}, {"type": "node", "id": 4676469045, "lat": 40.7201773, "lon": -73.9991128, "tags": {"barrier": "gate"}}, {"type": "node", "id": 4676469046, "lat": 40.7206229, "lon": -73.9991667}, {"type": "node", "id": 4754117949, "lat": 40.7205751, "lon": -74.0010102, "tags": {"bus": "yes", "highway": "bus_stop", "name": "Broadway & Grand Street", "network": "NYC Transit", "network:wikidata": "Q1325591", "network:wikipedia": "en:New York City Transit Authority", "operator": "New York City Transit Authority", "public_transport": "platform", "ref": "400159", "route_ref": "M55"}}, {"type": "node", "id": 4755831434, "lat": 40.7240075, "lon": -73.9980765, "tags": {"bench": "no", "bus": "yes", "highway": "bus_stop", "name": "Broadway & Prince Street", "operator": "New York City Transit Authority", "public_transport": "platform", "ref": "404916", "route_ref": "M1;M55", "shelter": "no"}}, {"type": "node", "id": 4755831436, "lat": 40.7227645, "lon": -73.9991105, "tags": {"bus": "yes", "highway": "bus_stop", "name": "Broadway & Spring Street", "network": "NYC Transit", "network:wikidata": "Q1325591", "network:wikipedia": "en:New York City Transit Authority", "operator": "New York City Transit Authority", "public_transport": "platform", "ref": "400157", "route_ref": "M55"}}, {"type": "node", "id": 4755831439, "lat": 40.7216454, "lon": -74.0001096, "tags": {"bus": "yes", "highway": "bus_stop", "name": "Broadway & Broome Street", "network": "NYC Transit", "network:wikidata": "Q1325591", "network:wikipedia": "en:New York City Transit Authority", "operator": "New York City Transit Authority", "public_transport": "platform", "ref": "405277", "route_ref": "X1;X10;X12;X17;X27;X28", "shelter": "no"}}, {"type": "node", "id": 4755898714, "lat": 40.7251814, "lon": -73.9963397, "tags": {"bus": "yes", "highway": "bus_stop", "name": "East Houston Street & Broadway", "network": "NYC Transit", "network:wikidata": "Q1325591", "network:wikipedia": "en:New York City Transit Authority", "operator": "New York City Transit Authority", "public_transport": "platform", "ref": "402026", "route_ref": "M21"}}, {"type": "node", "id": 4755898718, "lat": 40.7251336, "lon": -73.9971484, "tags": {"bench": "no", "bus": "yes", "highway": "bus_stop", "name": "Broadway & West Houston Street", "operator": "New York City Transit Authority", "public_transport": "platform", "ref": "403311", "route_ref": "M1;M55;X1;X10;X12;X17", "shelter": "no"}}, {"type": "node", "id": 5135800964, "lat": 40.7256902, "lon": -74.0038242, "tags": {"bench": "no", "bus": "yes", "highway": "bus_stop", "lit": "no", "name": "6th Avenue & Spring Street", "network": "NYC Transit", "network:wikidata": "Q1325591", "network:wikipedia": "en:New York City Transit Authority", "operator": "MTA", "public_transport": "platform", "route_ref": "M21;M55", "shelter": "no", "wheelchair": "yes"}}, {"type": "node", "id": 5135800966, "lat": 40.7244711, "lon": -74.0042985, "tags": {"bus": "yes", "highway": "bus_stop", "name": "6th Avenue & Broome Street", "network": "NYC Transit", "network:wikidata": "Q1325591", "network:wikipedia": "en:New York City Transit Authority", "operator": "MTA", "public_transport": "platform", "route_ref": "M55"}}, {"type": "node", "id": 5135824726, "lat": 40.7232474, "lon": -74.0047813, "tags": {"bench": "no", "bus": "yes", "highway": "bus_stop", "name": "6th Avenue & Grand Street", "network": "NYC Transit", "network:wikidata": "Q1325591", "network:wikipedia": "en:New York City Transit Authority", "operator": "MTA", "public_transport": "platform", "route_ref": "M55", "shelter": "no"}}, {"type": "node", "id": 5135824728, "lat": 40.7224815, "lon": -74.0050971, "tags": {"bench": "yes", "bus": "yes", "highway": "bus_stop", "name": "6th Avenue & Thompson Street", "network": "NYC Transit", "network:wikidata": "Q1325591", "network:wikipedia": "en:New York City Transit Authority", "operator": "MTA", "public_transport": "platform", "route_ref": "M55", "shelter": "yes"}}, {"type": "node", "id": 5135896921, "lat": 40.7271874, "lon": -74.0032191, "tags": {"bench": "yes", "bus": "yes", "highway": "bus_stop", "name": "6th Avenue & Prince Street", "network": "NYC Transit", "network:wikidata": "Q1325591", "network:wikipedia": "en:New York City Transit Authority", "operator": "MTA", "public_transport": "platform", "route_ref": "M21;M55", "shelter": "yes"}}, {"type": "node", "id": 5243563189, "lat": 40.7279984, "lon": -74.0023531, "tags": {"bench": "yes", "bus": "yes", "highway": "bus_stop", "name": "West Houston Street & MacDougal Street", "operator": "Metropolitan Transportation Authority", "public_transport": "platform", "route_ref": "M21", "shelter": "yes"}}, {"type": "node", "id": 5243567212, "lat": 40.7258677, "lon": -73.9981053, "tags": {"bench": "no", "bus": "yes", "highway": "bus_stop", "name": "East Houston Street & Greene Street", "public_transport": "platform", "shelter": "no"}}, {"type": "node", "id": 5243567850, "lat": 40.7267181, "lon": -73.9997495, "tags": {"bench": "yes", "bus": "yes", "highway": "bus_stop", "mapillary": "1132944067205361", "name": "West Houston Street & West Broadway", "public_transport": "platform", "route_ref": "M21", "shelter": "yes", "survey:date": "2020-02-15"}}, {"type": "node", "id": 5355696048, "lat": 40.7205415, "lon": -74.0010096, "tags": {"bench": "yes", "bus": "yes", "highway": "bus_stop", "name": "Broadway and Grand Street", "public_transport": "platform", "route_ref": "M55", "shelter": "no"}}, {"type": "node", "id": 5918965985, "lat": 40.72724, "lon": -74.0027173, "tags": {"bus": "yes", "highway": "bus_stop", "public_transport": "platform"}}, {"type": "node", "id": 6491645894, "lat": 40.7265621, "lon": -74.0034041}, {"type": "node", "id": 9910666323, "lat": 40.7202958, "lon": -73.9993563, "tags": {"barrier": "gate"}}, {"type": "node", "id": 9910666325, "lat": 40.7203136, "lon": -73.9989973, "tags": {"barrier": "gate"}}, {"type": "node", "id": 9910684158, "lat": 40.7202413, "lon": -73.9992442, "tags": {"barrier": "gate"}}, {"type": "node", "id": 9910684789, "lat": 40.7202052, "lon": -73.9991701}, {"type": "node", "id": 9910692579, "lat": 40.7202819, "lon": -73.9993277}, {"type": "node", "id": 9910692580, "lat": 40.7202548, "lon": -73.999272}, {"type": "node", "id": 9910692581, "lat": 40.7202445, "lon": -73.9992508}, {"type": "node", "id": 9910692582, "lat": 40.7202267, "lon": -73.9992144}, {"type": "node", "id": 9910692583, "lat": 40.7201921, "lon": -73.9991431}, {"type": "node", "id": 9910692584, "lat": 40.7201966, "lon": -73.9990965}, {"type": "node", "id": 9910692585, "lat": 40.7202964, "lon": -73.999012}, {"type": "node", "id": 9910692586, "lat": 40.7203315, "lon": -73.9989821}, {"type": "node", "id": 9910692619, "lat": 40.7203133, "lon": -73.9993923}, {"type": "node", "id": 10208805585, "lat": 40.7265423, "lon": -74.0034342}, {"type": "way", "id": 239988118, "nodes": [2477560571, 2477560535, 6491645894, 10208805585, 2477560540, 2477560571], "tags": {"gnis:feature_id": "2500755", "leisure": "park", "name": "Father Fagan Park", "wikidata": "Q49488572"}}, {"type": "way", "id": 249665058, "nodes": [2562450620, 2562450626, 2562450625, 2562450616, 2562450620], "tags": {"ele": "6", "gnis:county_id": "061", "gnis:created": "10/02/2008", "gnis:feature_id": "2500754", "gnis:state_id": "36", "leisure": "park", "name": "Playground of the Americas", "website": "https://www.nycgovparks.org/parks/playground-of-the-americas/"}}, {"type": "way", "id": 449139914, "nodes": [4461051681, 4461051682, 4461051683, 4461051684, 4461051681], "tags": {"leisure": "park", "name": "Urban Park"}}, {"type": "way", "id": 473565702, "nodes": [2547466432, 9910692619, 9910666323, 9910692579, 9910692580, 9910692581, 9910684158, 9910692582, 9910684789, 9910692583, 4676469045, 9910692584, 9910692585, 9910666325, 9910692586, 2547466453, 2547466479, 4676469046, 2547466482, 2547466432], "tags": {"addr:city": "New York", "addr:postcode": "10013", "addr:state": "NY", "leisure": "park", "name": "Rapkin-Gayle Plaza", "opening_hours": "Mo-Su 06:00-22:00", "operator": "New York City Department of Parks and Recreation", "operator:short": "NYC Parks", "operator:type": "public", "operator:wikidata": "Q1894232", "website": "https://www.nycgovparks.org/parks/M413"}}]}